{"business_id":"pQeaRpvuhoEqudo3uymHIQ","name":"The Empanadas House","address":"404 E Green St","city":"Champaign","state":"IL","postal_code":"61820","latitude":40.1104457,"longitude":-88.2330726,"stars":4.5,"review_count":5,"is_open":1,"attributes":{"RestaurantsAttire":"u'casual'","RestaurantsTakeOut":"True","BusinessAcceptsCreditCards":"True","NoiseLevel":"u'quiet'","GoodForKids":"False","RestaurantsReservations":"False","RestaurantsGoodForGroups":"False","BusinessParking":"None","RestaurantsPriceRange2":"1","HasTV":"True","Alcohol":"'none'","BikeParking":"False","RestaurantsDelivery":"True","ByAppointmentOnly":"False","OutdoorSeating":"False"},"categories":"Ethnic Food, Food Trucks, Specialty Food, Imported Food, Argentine, Food, Restaurants, Empanadas","hours":{"Monday":"11:30-14:30","Tuesday":"11:30-14:30","Wednesday":"11:30-14:30","Thursday":"11:30-14:30","Friday":"11:30-14:30"}}
{"business_id":"PslhllUwcQFavRHp-lyMOQ","name":"Disney Store","address":"8111 Concord Mills Blvd, Space 214","city":"Concord","state":"NC","postal_code":"28027","latitude":35.370076,"longitude":-80.723929,"stars":3.5,"review_count":6,"is_open":1,"attributes":{"BusinessAcceptsCreditCards":"True","RestaurantsPriceRange2":"2","BusinessParking":"{'garage': False, 'street': False, 'validated': False, 'lot': False, 'valet': False}"},"categories":"Children's Clothing, Shopping, Outlet Stores, Fashion, Toy Stores","hours":{"Monday":"10:0-21:0","Tuesday":"10:0-21:0","Wednesday":"10:0-21:0","Thursday":"10:0-21:0","Friday":"10:0-21:0","Saturday":"10:0-21:0","Sunday":"12:0-19:0"}}
{"business_id":"98hyK2QEUeI8v2y0AghfZA","name":"Pho Lee's Vietnamese Restaurant","address":"1541 E 38th St, Ste 101","city":"Cleveland","state":"OH","postal_code":"44114","latitude":41.5121553,"longitude":-81.663332,"stars":4.5,"review_count":23,"is_open":1,"attributes":{"BusinessParking":"None","Ambience":"{'touristy': False, 'hipster': False, 'romantic': False, 'divey': False, 'intimate': False, 'trendy': False, 'upscale': False, 'classy': False, 'casual': False}","BYOB":"False","GoodForMeal":"{'dessert': False, 'latenight': False, 'lunch': False, 'dinner': False, 'brunch': False, 'breakfast': False}","Corkage":"False","BusinessAcceptsCreditCards":"True","BikeParking":"True","Alcohol":"u'none'","HasTV":"True","OutdoorSeating":"False","WiFi":"u'no'","RestaurantsTableService":"True","WheelchairAccessible":"True","RestaurantsTakeOut":"True","Caters":"False","RestaurantsDelivery":"True"},"categories":"Restaurants, Vietnamese, Soup","hours":{"Monday":"11:0-20:0","Wednesday":"11:0-20:0","Thursday":"11:0-20:0","Friday":"11:0-20:0","Saturday":"11:0-20:0","Sunday":"11:0-20:0"}}
{"business_id":"fhNf_sg-XzZ3e7HEVGuOZg","name":"Meat Chix And Wieners","address":"6530 S Decatur Blvd","city":"Las Vegas","state":"NV","postal_code":"89118","latitude":36.071196,"longitude":-115.207463,"stars":3.0,"review_count":10,"is_open":0,"attributes":{"RestaurantsPriceRange2":"2","BusinessParking":"{'garage': False, 'street': False, 'validated': False, 'lot': False, 'valet': False}","RestaurantsAttire":"u'casual'","Alcohol":"u'none'","RestaurantsTakeOut":"True","RestaurantsGoodForGroups":"False","RestaurantsReservations":"False","Caters":"False","HasTV":"True","GoodForKids":"False","OutdoorSeating":"False","NoiseLevel":"u'loud'","Ambience":"{'romantic': False, 'intimate': False, 'touristy': False, 'hipster': False, 'divey': False, 'classy': False, 'trendy': False, 'upscale': False, 'casual': False}","BusinessAcceptsCreditCards":"True"},"categories":"Burgers, Restaurants, American (Traditional), Chicken Wings","hours":{"Monday":"11:0-22:0","Tuesday":"11:0-22:0","Wednesday":"11:0-22:0","Thursday":"11:0-22:0","Friday":"11:0-22:0","Saturday":"11:0-22:0","Sunday":"11:0-22:0"}}
{"business_id":"LoRef3ChgZKbxUio-sHgQg","name":"Amir","address":"5252 Rue Jean Talon O","city":"Montréal","state":"QC","postal_code":"H4P 2A7","latitude":45.4948701572,"longitude":-73.6519035927,"stars":3.0,"review_count":18,"is_open":1,"attributes":{"RestaurantsAttire":"u'casual'","RestaurantsGoodForGroups":"True","BusinessParking":"{'garage': False, 'street': False, 'validated': False, 'lot': False, 'valet': False}","RestaurantsPriceRange2":"2","RestaurantsDelivery":"True","OutdoorSeating":"True","BikeParking":"True","WiFi":"u'no'","NoiseLevel":"u'average'","GoodForKids":"True","RestaurantsTakeOut":"True","Caters":"False","Ambience":"{'romantic': False, 'intimate': False, 'classy': False, 'hipster': False, 'divey': False, 'touristy': False, 'trendy': False, 'upscale': False, 'casual': False}","RestaurantsReservations":"False","HasTV":"True"},"categories":"Restaurants, Lebanese, Middle Eastern","hours":null}
{"business_id":"Ga2Bt7xfqoggTypWD5VpoQ","name":"Amando's Bros","address":"2602 W Southern Ave","city":"Tempe","state":"AZ","postal_code":"85282","latitude":33.393199,"longitude":-111.97627,"stars":4.0,"review_count":9,"is_open":0,"attributes":{"Caters":"False","RestaurantsGoodForGroups":"True","RestaurantsAttire":"u'casual'","Alcohol":"u'none'","Ambience":"{'romantic': False, 'intimate': False, 'classy': False, 'hipster': False, 'divey': False, 'touristy': False, 'trendy': False, 'upscale': False, 'casual': True}","RestaurantsTakeOut":"True","NoiseLevel":"u'quiet'","BusinessAcceptsCreditCards":"True","WiFi":"u'no'","RestaurantsReservations":"False","HasTV":"True","RestaurantsPriceRange2":"1","GoodForKids":"True","RestaurantsDelivery":"False","OutdoorSeating":"False","BusinessParking":"{'garage': False, 'street': False, 'validated': False, 'lot': False, 'valet': False}"},"categories":"Mexican, Restaurants","hours":{"Monday":"7:0-20:0","Tuesday":"7:0-20:0","Wednesday":"7:0-20:0","Thursday":"7:0-20:0","Friday":"7:0-20:0","Saturday":"7:0-20:0","Sunday":"7:0-20:0"}}
{"business_id":"_xOeoXfPUQTNlUAhXl32ug","name":"Starbucks","address":"150 Boulevard Crémazie E","city":"Montréal","state":"QC","postal_code":"H2P 1E2","latitude":45.542993,"longitude":-73.640218,"stars":3.5,"review_count":4,"is_open":1,"attributes":{"RestaurantsTakeOut":"True","RestaurantsPriceRange2":"1","BikeParking":"True","OutdoorSeating":"True","WiFi":"'free'","BusinessParking":"None"},"categories":"Coffee & Tea, Food","hours":{"Monday":"5:30-23:0","Tuesday":"5:30-23:0","Wednesday":"5:30-23:0","Thursday":"5:30-23:0","Friday":"5:30-23:0","Saturday":"6:30-23:0","Sunday":"6:30-23:0"}}
{"business_id":"xFc50drSPxXkcLvX5ygqrg","name":"Boomer's Sweet Home Chicago","address":"5932 W Bell Rd, Ste D-109","city":"Glendale","state":"AZ","postal_code":"85308","latitude":33.6403912,"longitude":-112.1870284,"stars":3.5,"review_count":12,"is_open":0,"attributes":{"BusinessAcceptsCreditCards":"True","BusinessParking":"{'garage': False, 'street': False, 'validated': False, 'lot': True, 'valet': False}","GoodForKids":"True","RestaurantsGoodForGroups":"True","RestaurantsReservations":"False","RestaurantsTakeOut":"True","RestaurantsAttire":"'casual'","RestaurantsPriceRange2":"1","Alcohol":"u'none'","OutdoorSeating":"False"},"categories":"Burgers, Fast Food, American (New), Restaurants, Hot Dogs","hours":null}
{"business_id":"oPfzMA_kA9NQwG-h-JkGzA","name":"Bass Pro Shops Outdoor World","address":"1 Bass Pro Mills Drive","city":"Concord","state":"ON","postal_code":"L4K 5W4","latitude":43.824968,"longitude":-79.543494,"stars":3.5,"review_count":39,"is_open":1,"attributes":{"BusinessParking":"{'garage': False, 'street': False, 'validated': False, 'lot': True, 'valet': False}","RestaurantsPriceRange2":"2","BikeParking":"True"},"categories":"Fashion, Sports Wear, Shopping, Sporting Goods, Outdoor Gear","hours":{"Monday":"9:0-21:0","Tuesday":"9:0-21:0","Wednesday":"9:0-21:0","Thursday":"9:0-21:0","Friday":"9:0-21:0","Saturday":"9:0-21:0","Sunday":"10:0-19:0"}}
{"business_id":"jutfk7U4GV899q6qfYp5dA","name":"Christ's Church of the Valley - Anthem Campus","address":"39905 N Gavilan Peak Pkwy","city":"Anthem","state":"AZ","postal_code":"85086","latitude":33.8468406,"longitude":-112.1365477,"stars":5.0,"review_count":4,"is_open":1,"attributes":{"ByAppointmentOnly":"False"},"categories":"Churches, Religious Organizations","hours":{"Monday":"8:30-16:30","Tuesday":"8:30-16:30","Wednesday":"8:30-16:30","Thursday":"8:30-16:30","Saturday":"17:30-18:30","Sunday":"11:30-12:30"}}
{"business_id":"tLpkSwdtqqoXwU0JAGnApw","name":"Wendy's","address":"4602 Northfield Road","city":"Cleveland","state":"OH","postal_code":"44128","latitude":41.434614,"longitude":-81.5270257,"stars":3.5,"review_count":7,"is_open":1,"attributes":{"RestaurantsDelivery":"False","BusinessAcceptsCreditCards":"True","GoodForKids":"True","OutdoorSeating":"False","NoiseLevel":"u'average'","RestaurantsAttire":"u'casual'","Ambience":"{'romantic': False, 'intimate': False, 'touristy': False, 'hipster': False, 'divey': False, 'classy': False, 'trendy': False, 'upscale': False, 'casual': False}","Caters":"False","RestaurantsPriceRange2":"1","RestaurantsTakeOut":"True","RestaurantsReservations":"False","GoodForMeal":"{'dessert': False, 'latenight': False, 'lunch': False, 'dinner': False, 'brunch': False, 'breakfast': False}","BusinessParking":"{'garage': False, 'street': False, 'validated': False, 'lot': True, 'valet': False}","RestaurantsGoodForGroups":"True","Alcohol":"u'none'"},"categories":"Restaurants, Fast Food, Burgers","hours":{"Monday":"10:0-3:0","Tuesday":"10:0-3:0","Wednesday":"10:0-3:0","Thursday":"10:0-3:0","Friday":"10:0-3:0","Saturday":"10:0-3:0","Sunday":"10:0-3:0"}}
